{
  "EarthCam: South Beach Cam": {
    "location": "Miami, FL United States",
    "title": "EarthCam: South Beach Cam",
    "url": "http://www.earthcam.com/usa/florida/miamiandthebeaches/?cam=miamibeach7",
    "cam_type": "Flash",
    "result_bottom": "Cam Type: Streaming Image",
    "Categories": "Scenic",
    "lat": 25.7616798,
    "lng": -80.1917902
  },
  "EarthCam: Times Square Crossroads": {
    "location": "New York City, NY United States",
    "title": "EarthCam: Times Square Crossroads",
    "url": "http://www.earthcam.com/usa/newyork/timessquare/?cam=tsrobo3",
    "cam_type": "Flash",
    "result_bottom": "Cam Type: Streaming Image",
    "Categories": "Business,Education,Arts & Entertainment,News,Scenic,Society & People,Traffic,Weather",
    "lat": 40.7127837,
    "lng": -74.0059413
  },
  "EarthCam: Elvis Wedding Chapel": {
    "location": "Las Vegas, NV United States",
    "title": "EarthCam: Elvis Wedding Chapel",
    "url": "http://www.earthcam.com/usa/nevada/lasvegas/index.php?cam=wedding",
    "cam_type": "Flash",
    "result_bottom": "Cam Type: Streaming Image",
    "Categories": "Business,Arts & Entertainment,Society & People",
    "lat": 36.1699412,
    "lng": -115.1398296
  },
  "EarthCam: Eads Bridge Cam": {
    "location": "St. Louis, MO United States",
    "title": "EarthCam: Eads Bridge Cam",
    "url": "http://www.earthcam.com/usa/missouri/stlouis/?cam=eadsbridge",
    "cam_type": "Flash",
    "result_bottom": "Cam Type: Streaming Image",
    "Categories": "Traffic",
    "lat": 38.6270025,
    "lng": -90.19940419999999
  },
  "EarthCam: USS Intrepid at Statue of Liberty T...": {
    "location": "New York City, NY United States",
    "title": "EarthCam: USS Intrepid at Statue of Liberty T...",
    "url": "http://www.earthcam.com/usa/newyork/intrepid/index.php?cam=liberty_archives",
    "cam_type": "Windows Media",
    "result_bottom": "Cam Type: Streaming Image",
    "Categories": "Scenic",
    "lat": 40.7127837,
    "lng": -74.0059413
  },
  "EarthCam: USS Intrepid at World Trade Center ...": {
    "location": "New York City, NY United States",
    "title": "EarthCam: USS Intrepid at World Trade Center ...",
    "url": "http://www.earthcam.com/usa/newyork/intrepid/index.php?cam=gzrob_archives",
    "cam_type": "Windows Media",
    "result_bottom": "Cam Type: Streaming Image",
    "Categories": "Scenic",
    "lat": 40.7127837,
    "lng": -74.0059413
  },
  "EarthCam: USS Intrepid at Pier 86 Time-Lapse": {
    "location": "New York City, NY United States",
    "title": "EarthCam: USS Intrepid at Pier 86 Time-Lapse",
    "url": "http://www.earthcam.com/usa/newyork/intrepid/index.php?cam=intrepid2_archives",
    "cam_type": "Windows Media",
    "result_bottom": "Cam Type: Streaming Image",
    "Categories": "Scenic",
    "lat": 40.7127837,
    "lng": -74.0059413
  },
  "EarthCam: Virginia Beach Cam": {
    "location": "Virginia Beach, VA United States",
    "title": "EarthCam: Virginia Beach Cam",
    "url": "http://www.earthcam.com/usa/virginia/virginiabeach/",
    "cam_type": "Flash",
    "result_bottom": "Cam Type: Streaming Image",
    "Categories": "Scenic,Weather",
    "lat": 36.8529263,
    "lng": -75.97798499999999
  },
  "EarthCam: Anguilla Cam - Barnes Bay": {
    "location": "Barnes Bay,  Anguilla",
    "title": "EarthCam: Anguilla Cam - Barnes Bay",
    "url": "http://www.earthcam.com/world/anguilla/meadsbay/?cam=barnesbay",
    "cam_type": "Flash",
    "result_bottom": "Cam Type: Streaming Image",
    "Categories": "Scenic",
    "lat": 18.1751281,
    "lng": -63.15212340000001
  },
  "EarthCam: Times Square 47th & Broadway": {
    "location": "New York City, NY United States",
    "title": "EarthCam: Times Square 47th & Broadway",
    "url": "http://www.earthcam.com/usa/newyork/timessquare/?cam=tsrobo1",
    "cam_type": "Windows Media",
    "result_bottom": "Cam Type: Streaming Image",
    "Categories": "Arts & Entertainment,News,Scenic,Society & People,Traffic,Weather",
    "lat": 40.7127837,
    "lng": -74.0059413
  },
  "EarthCam: Amsterdam Cam": {
    "location": "Amsterdam,  Netherlands",
    "title": "EarthCam: Amsterdam Cam",
    "url": "http://www.earthcam.com/world/netherlands/amsterdam/",
    "cam_type": "Flash",
    "result_bottom": "Cam Type: Streaming Image",
    "Categories": "Scenic",
    "lat": 52.3702157,
    "lng": 4.895167900000001
  },
  "EarthCam: Statue of Liberty Panorama Cam": {
    "location": "New York City, NY United States",
    "title": "EarthCam: Statue of Liberty Panorama Cam",
    "url": "http://www.earthcam.com/usa/newyork/statueofliberty/?cam=liberty_pano",
    "cam_type": "Flash",
    "result_bottom": "Cam Type: Streaming Image",
    "Categories": "Arts & Entertainment,Scenic,Society & People,Sports & Recreation",
    "lat": 40.7127837,
    "lng": -74.0059413
  },
  "EarthCam: Ellis Island": {
    "location": "New York City, NY United States",
    "title": "EarthCam: Ellis Island",
    "url": "http://www.earthcam.com/usa/newyork/statueofliberty/?cam=liberty_ellisisland",
    "cam_type": "Flash",
    "result_bottom": "Cam Type: Streaming Image",
    "Categories": "Arts & Entertainment,Scenic,Society & People,Sports & Recreation",
    "lat": 40.7127837,
    "lng": -74.0059413
  },
  "EarthCam: Statue of Liberty HarborCam": {
    "location": "New York City, NY United States",
    "title": "EarthCam: Statue of Liberty HarborCam",
    "url": "http://www.earthcam.com/usa/newyork/statueofliberty/?cam=liberty_hd",
    "cam_type": "Flash",
    "result_bottom": "Cam Type: Streaming Image",
    "Categories": "Arts & Entertainment,Scenic,Society & People,Sports & Recreation",
    "lat": 40.7127837,
    "lng": -74.0059413
  },
  "EarthCam: Statue of Liberty TorchCam": {
    "location": "New York City, NY United States",
    "title": "EarthCam: Statue of Liberty TorchCam",
    "url": "http://www.earthcam.com/usa/newyork/statueofliberty/",
    "cam_type": "Flash",
    "result_bottom": "Cam Type: Streaming Image",
    "Categories": "Arts & Entertainment,Scenic,Society & People,Sports & Recreation",
    "lat": 40.7127837,
    "lng": -74.0059413
  },
  "EarthCam: Statue of Liberty CrownCam": {
    "location": "Liberty Island, NY United States",
    "title": "EarthCam: Statue of Liberty CrownCam",
    "url": "http://www.earthcam.com/usa/newyork/statueofliberty/?cam=liberty_crown",
    "cam_type": "Flash",
    "result_bottom": "Cam Type: Streaming Image",
    "Categories": "Arts & Entertainment,Scenic,Society & People,Sports & Recreation",
    "lat": 40.6895453,
    "lng": -74.0449292
  },
  "EarthCam: Doha, Qatar Cam": {
    "location": "Doha,  Qatar",
    "title": "EarthCam: Doha, Qatar Cam",
    "url": "http://www.earthcam.com/world/qatar/doha/",
    "cam_type": "Flash",
    "result_bottom": "Cam Type: Streaming Image",
    "Categories": "Scenic,Weather",
    "lat": 25.2854473,
    "lng": 51.53103979999999
  },
  "EarthCam: Bali Elephant Cam Trail Path": {
    "location": "Bali,  Indonesia",
    "title": "EarthCam: Bali Elephant Cam Trail Path",
    "url": "http://www.earthcam.com/indonesia/bali/?cam=bali1",
    "cam_type": "Flash",
    "result_bottom": "Cam Type: Streaming Image",
    "Categories": "Animals,Scenic",
    "lat": -8.4095178,
    "lng": 115.188916
  },
  "EarthCam: Panama City Cam": {
    "location": "Panama City, FL United States",
    "title": "EarthCam: Panama City Cam",
    "url": "http://www.earthcam.com/usa/florida/panamacity/",
    "cam_type": "Flash",
    "result_bottom": "Cam Type: Streaming Image",
    "Categories": "Scenic",
    "lat": 30.1588129,
    "lng": -85.6602058
  },
  "EarthCam: Hamburg Cam": {
    "location": "Hamburg,  Germany",
    "title": "EarthCam: Hamburg Cam",
    "url": "http://www.earthcam.com/world/germany/hamburg/",
    "cam_type": "Flash",
    "result_bottom": "Cam Type: Streaming Image",
    "Categories": "Scenic",
    "lat": 53.5510846,
    "lng": 9.9936818
  },
  "EarthCam: Route 66 Cam - East View": {
    "location": "Vinita, OK United States",
    "title": "EarthCam: Route 66 Cam - East View",
    "url": "http://www.earthcam.com/usa/oklahoma/vinita/?cam=route66east",
    "cam_type": "Flash",
    "result_bottom": "Cam Type: Streaming Image",
    "Categories": "Society & People",
    "lat": 36.6386937,
    "lng": -95.15413389999999
  },
  "EarthCam: Route 66 Cam - WestView": {
    "location": "Vinita, OK United States",
    "title": "EarthCam: Route 66 Cam - WestView",
    "url": "http://www.earthcam.com/usa/oklahoma/vinita/?cam=route66west",
    "cam_type": "Flash",
    "result_bottom": "Cam Type: Streaming Image",
    "Categories": "Society & People",
    "lat": 36.6386937,
    "lng": -95.15413389999999
  },
  "EarthCam: Sedona Gateway Cam": {
    "location": "Sedona, AZ United States",
    "title": "EarthCam: Sedona Gateway Cam",
    "url": "http://www.earthcam.com/usa/arizona/sedona/gateway/",
    "cam_type": "Flash",
    "result_bottom": "Cam Type: Streaming Image",
    "Categories": "Scenic",
    "lat": 34.8697395,
    "lng": -111.7609896
  },
  "EarthCam: French Quarter Cams - Little Tropic...": {
    "location": "New Orleans, LA United States",
    "title": "EarthCam: French Quarter Cams - Little Tropic...",
    "url": "http://www.earthcam.com/usa/louisiana/neworleans/frenchquarter/?cam=tilittle",
    "cam_type": "Flash",
    "result_bottom": "Cam Type: Streaming Image",
    "Categories": "Arts & Entertainment,Scenic,Traffic",
    "lat": 29.95106579999999,
    "lng": -90.0715323
  },
  "EarthCam: Statue of Liberty": {
    "location": "New York City, NY United States",
    "title": "EarthCam: Statue of Liberty",
    "url": "http://www.earthcam.com/usa/newyork/statueofliberty/?cam=liberty_mp",
    "cam_type": "Windows Media",
    "result_bottom": "Cam Type: Streaming Image",
    "Categories": "Education,Arts & Entertainment,Scenic,Society & People,Sports & Recreation",
    "lat": 40.7127837,
    "lng": -74.0059413
  },
  "EarthCam: Seattle Space Needle Cam": {
    "location": "Seattle, WA United States",
    "title": "EarthCam: Seattle Space Needle Cam",
    "url": "http://www.earthcam.com/usa/washington/seattle/?cam=seattlespaceneedle",
    "cam_type": "Flash",
    "result_bottom": "Cam Type: Streaming Image",
    "Categories": "Scenic",
    "lat": 47.6062095,
    "lng": -122.3320708
  },
  "EarthCam: New York City's East River": {
    "location": "New York City, NY United States",
    "title": "EarthCam: New York City's East River",
    "url": "http://www.earthcam.com/usa/newyork/midtown/skyline/?cam=eastriver_skyline",
    "cam_type": "Flash",
    "result_bottom": "Cam Type: Streaming Image",
    "Categories": "Scenic",
    "lat": 40.7127837,
    "lng": -74.0059413
  },
  "EarthCam: Paterson Falls Cam": {
    "location": "Paterson, NJ United States",
    "title": "EarthCam: Paterson Falls Cam",
    "url": "http://www.earthcam.com/usa/newjersey/paterson/",
    "cam_type": "JPEG",
    "result_bottom": "Cam Type: Streaming Image",
    "Categories": "Scenic",
    "lat": 40.9167654,
    "lng": -74.17181099999999
  },
  "EarthCam: French Quarter Cams - Stage Cam": {
    "location": "New Orleans, LA United States",
    "title": "EarthCam: French Quarter Cams - Stage Cam",
    "url": "http://www.earthcam.com/usa/louisiana/neworleans/frenchquarter/?cam=tioriginal",
    "cam_type": "Flash",
    "result_bottom": "Cam Type: Streaming Image",
    "Categories": "Arts & Entertainment,Scenic,Traffic",
    "lat": 29.95106579999999,
    "lng": -90.0715323
  },
  "EarthCam: French Quarter Cams - Bourbon Stree...": {
    "location": "New Orleans, LA United States",
    "title": "EarthCam: French Quarter Cams - Bourbon Stree...",
    "url": "http://www.earthcam.com/usa/louisiana/neworleans/frenchquarter/?cam=tioutside",
    "cam_type": "Flash",
    "result_bottom": "Cam Type: Streaming Image",
    "Categories": "Arts & Entertainment,Scenic,Traffic",
    "lat": 29.95106579999999,
    "lng": -90.0715323
  }
}
